[
  {
    "Name": "Trader Joe's",
    "Address": "555 9th St",
    "LAT": 37.77089,
    "LNG": -122.407624,
    "POST": 94103,
    "Neighborhood": "SOMISSPO,South Of Market"
  },
  {
    "Name": "Trader Joe's",
    "Address": "265 Winston Dr",
    "LAT": 37.726699,
    "LNG": -122.476232,
    "POST": 94132,
    "Neighborhood": "Lakeside,Stonestown"
  },
  {
    "Name": "Trader Joe's",
    "Address": "1095 Hyde St",
    "LAT": 37.790733,
    "LNG": -122.417725,
    "POST": 94109,
    "Neighborhood": "Lower Nob Hill,Nob Hill,Tenderloin"
  },
  {
    "Name": "Trader Joe's",
    "Address": "3 Masonic Ave",
    "LAT": 37.783321,
    "LNG": -122.447708,
    "POST": 94118,
    "Neighborhood": "Anza Vista,Laurel Heights"
  },
  {
    "Name": "Trader Joe's",
    "Address": "401 Bay St",
    "LAT": 37.805549,
    "LNG": -122.413859,
    "POST": 94133,
    "Neighborhood": "Fisherman's Wharf,North Beach"
  },
  {
    "Name": "Trader Joe's",
    "Address": "10 4th St",
    "LAT": 37.78567,
    "LNG": -122.40571,
    "POST": 94103,
    "Neighborhood": "Civic Center,Financial District,NOMA,South Of Market,Union Square"
  },
  {
    "Name": "Whole Foods",
    "Address": "2001 Market St",
    "LAT": 37.768878,
    "LNG": -122.426918,
    "POST": 94114,
    "Neighborhood": "Duboce Triangle,Lower Haight,Mission Dolores"
  },
  {
    "Name": "Whole Foods",
    "Address": "450 Rhode Island St",
    "LAT": 37.76435,
    "LNG": -122.402771,
    "POST": 94107,
    "Neighborhood": "Potrero District,Potrero Flats"
  },
  {
    "Name": "Whole Foods",
    "Address": "1150 Ocean Ave",
    "LAT": 37.723811,
    "LNG": -122.454773,
    "POST": 94112,
    "Neighborhood": "Potrero District,Potrero Flats"
  },
  {
    "Name": "Whole Foods",
    "Address": "399 4th St",
    "LAT": 37.781091,
    "LNG": -122.399748,
    "POST": 94107,
    "Neighborhood": "South Beach,South Of Market"
  },
  {
    "Name": "Whole Foods",
    "Address": "1765 California St",
    "LAT": 37.790035,
    "LNG": -122.423347,
    "POST": 94109,
    "Neighborhood": "Cathedral Hill,Laguna Heights,Little Osaka,Pacific Heights,Polk Gulch,Van Ness"
  },
  {
    "Name": "Whole Foods",
    "Address": "3950 24th St",
    "LAT": 37.751776,
    "LNG": -122.430862,
    "POST": 94114,
    "Neighborhood": "Dolores Heights,Noe Valley"
  },
  {
    "Name": "Safeway",
    "Address": "5290 Diamond Heights Blvd",
    "LAT": 37.743695,
    "LNG": -122.438947,
    "POST": 94131,
    "Neighborhood": "Diamond Heights,Vista del Monte"
  },
  {
    "Name": "Safeway",
    "Address": "4950 Mission St",
    "LAT": 37.719746,
    "LNG": -122.439006,
    "POST": 94112,
    "Neighborhood": "Crocker-Amazon,Mission Terrace"
  },
  {
    "Name": "Safeway",
    "Address": "625 Monterey Blvd",
    "LAT": 37.731293,
    "LNG": -122.449753,
    "POST": 94127,
    "Neighborhood": "Sunnyside,Westwood Highlands"
  },
  {
    "Name": "Safeway",
    "Address": "1335 Webster St",
    "LAT": 37.78294,
    "LNG": -122.431425,
    "POST": 94115,
    "Neighborhood": "Thomas Paine Square,Western Addition"
  },
  {
    "Name": "Safeway",
    "Address": "730 Taraval St",
    "LAT": 37.743348,
    "LNG": -122.474029,
    "POST": 94116,
    "Neighborhood": "Inner Parkside,West Portal,Westlake"
  },
  {
    "Name": "Safeway",
    "Address": "350 Bay St",
    "LAT": 37.805995,
    "LNG": -122.412878,
    "POST": 94133,
    "Neighborhood": "Fisherman's Wharf,North Beach"
  },
  {
    "Name": "Safeway",
    "Address": "850 La Playa St",
    "LAT": 37.772419,
    "LNG": -122.509515,
    "POST": 94121,
    "Neighborhood": "Outer Richmond,Sutro Heights"
  },
  {
    "Name": "Safeway",
    "Address": "298 King St",
    "LAT": 37.776714,
    "LNG": -122.394143,
    "POST": 94107,
    "Neighborhood": "Mission Bay,South Of Market"
  },
  {
    "Name": "Safeway",
    "Address": "3350 Mission St",
    "LAT": 37.743202,
    "LNG": -122.422149,
    "POST": 94110,
    "Neighborhood": "Bernal Heights,Noe Valley,Transmission"
  },
  {
    "Name": "Safeway",
    "Address": "2300 16th St",
    "LAT": 37.76663,
    "LNG": -122.409496,
    "POST": 94103,
    "Neighborhood": "Inner Mission,Mission,Potrero Flats,SOMISSPO"
  },
  {
    "Name": "Safeway",
    "Address": "145 Jackson St",
    "LAT": 37.796902,
    "LNG": -122.398822,
    "POST": 94111,
    "Neighborhood": "Financial District,North Waterfront"
  },
  {
    "Name": "Safeway",
    "Address": "735 7th Ave",
    "LAT": 37.774638,
    "LNG": -122.465253,
    "POST": 94118,
    "Neighborhood": "Inner Richmond,Richmond District"
  },
  {
    "Name": "Safeway",
    "Address": "15 Marina Blvd",
    "LAT": 37.804545,
    "LNG": -122.432908,
    "POST": 94123,
    "Neighborhood": "Marina District"
  },
  {
    "Name": "Safeway",
    "Address": "2350 Noriega St",
    "LAT": 37.754064,
    "LNG": -122.488813,
    "POST": 94122,
    "Neighborhood": "Central Sunset,Doelger City,Sunset District"
  },
  {
    "Name": "Safeway",
    "Address": "2020 Market St",
    "LAT": 37.769053,
    "LNG": -122.428076,
    "POST": 94114,
    "Neighborhood": "Duboce Triangle,Lower Haight,Mission Dolor"
  }
]
